{"type":"FeatureCollection","features":[{"type":"Feature","properties":{"marker-color":"#7e7e7e","marker-size":"medium","marker-symbol":"","BusStop":59270,"Name":"Bay 6"},"geometry":{"type":"Point","coordinates":[-123.24811041355132,49.26860613874144]}},{"type":"Feature","properties":{"marker-color":"#7e7e7e","marker-size":"medium","marker-symbol":"","BusStop":59275,"Name":"Bay 7"},"geometry":{"type":"Point","coordinates":[-123.24786633253096,49.26865864405797]}},{"type":"Feature","properties":{"marker-color":"#7e7e7e","marker-size":"medium","marker-symbol":"","BusStop":60099,"Name":"Bay 11"},"geometry":{"type":"Point","coordinates":[-123.24591636657715,49.26659339281568]}},{"type":"Feature","properties":{"marker-color":"#7e7e7e","marker-size":"medium","marker-symbol":"","BusStop":61934,"Name":"Bay 1A"},"geometry":{"type":"Point","coordinates":[-123.24638843536377,49.26716397086925]}},{"type":"Feature","properties":{"marker-color":"#7e7e7e","marker-size":"medium","marker-symbol":"","BusStop":59936,"Name":"Bay 2"},"geometry":{"type":"Point","coordinates":[-123.24886679649352,49.268795157619444]}},{"type":"Feature","properties":{"marker-color":"#7e7e7e","marker-size":"medium","marker-symbol":"","BusStop":60045,"Name":"Bay 3"},"geometry":{"type":"Point","coordinates":[-123.2490599155426,49.268889666786876]}},{"type":"Feature","properties":{"marker-color":"#7e7e7e","marker-size":"medium","marker-symbol":"","BusStop":51479,"Name":"2100 Block"},"geometry":{"type":"Point","coordinates":[-123.24380815029144,49.26394694452899]}},{"type":"Feature","properties":{"marker-color":"#7e7e7e","marker-size":"medium","marker-symbol":"","BusStop":51480,"Name":"Thunderbird Blvd"},"geometry":{"type":"Point","coordinates":[-123.24115812778473,49.26098877547816]}},{"type":"Feature","properties":{"marker-color":"#7e7e7e","marker-size":"medium","marker-symbol":"","BusStop":51483,"Name":"Hampton Place"},"geometry":{"type":"Point","coordinates":[-123.23767662048338,49.25696608122435]}},{"type":"Feature","properties":{"marker-color":"#7e7e7e","marker-size":"medium","marker-symbol":"","BusStop":51928,"Name":"Western Parkway"},"geometry":{"type":"Point","coordinates":[-123.2467746734619,49.27325089289242]}},{"type":"Feature","properties":{"marker-color":"#7e7e7e","marker-size":"medium","marker-symbol":"","BusStop":51930,"Name":"Hamber Road"},"geometry":{"type":"Point","coordinates":[-123.23750495910645,49.27282388778085]}},{"type":"Feature","properties":{"marker-color":"#7e7e7e","marker-size":"medium","marker-symbol":"","BusStop":50268,"Name":"Allison Road"},"geometry":{"type":"Point","coordinates":[-123.24189305305481,49.26678942037568]}},{"type":"Feature","properties":{"marker-color":"#7e7e7e","marker-size":"medium","marker-symbol":"","BusStop":59272,"Name":"Bay 10"},"geometry":{"type":"Point","coordinates":[-123.24739158153535,49.26796556938054]}},{"type":"Feature","properties":{"marker-color":"#7e7e7e","marker-size":"medium","marker-symbol":"","BusStop":59273,"Name":"Bay 9"},"geometry":{"type":"Point","coordinates":[-123.24754714965819,49.268200095740035]}},{"type":"Feature","properties":{"marker-color":"#7e7e7e","marker-size":"medium","marker-symbol":"","BusStop":59274,"Name":"Bay 8"},"geometry":{"type":"Point","coordinates":[-123.24771344661714,49.268448622456596]}}]}